{
    "data": {
        "10": {
            "city": "BERN\n",
            "code": "Bern Engehalde 35",
            "lat": "46.9566879272",
            "lng": "7.43978691101",
            "venues": {
                "4b5726eef964a5207b2828e3": {
                    "category": "School",
                    "checkins": "472",
                    "lat": 46.95568538699699,
                    "lng": 7.444337527432052,
                    "name": "Gewerblich-Industrielle Berufsschule (GIBB)",
                    "tipCount": "0",
                    "usersCount": 39
                },
                "4b5db0a7f964a520fc6629e3": {
                    "category": "Office",
                    "checkins": "119",
                    "lat": 46.956008123841976,
                    "lng": 7.436384093669384,
                    "name": "SBB Infrastruktur",
                    "tipCount": "1",
                    "usersCount": 40
                },
                "4b66d742f964a520f82c2be3": {
                    "category": "Office",
                    "checkins": "2357",
                    "lat": 46.95813446195016,
                    "lng": 7.4403727700692555,
                    "name": "PostFinance",
                    "tipCount": "1",
                    "usersCount": 95
                },
                "4b7d6e0bf964a520c3bd2fe3": {
                    "category": "Office",
                    "checkins": "1",
                    "lat": 46.957159,
                    "lng": 7.437377,
                    "name": "RE 1871, BN-BI, 17.42 ab BN",
                    "tipCount": "0",
                    "usersCount": 1
                },
                "4b93195df964a520fe3434e3": {
                    "category": "Nightclub",
                    "checkins": "76",
                    "lat": 46.95398060657465,
                    "lng": 7.439887526671278,
                    "name": "Dead End",
                    "tipCount": "4",
                    "usersCount": 43
                },
                "4b994558f964a5201e6f35e3": {
                    "category": "Office",
                    "checkins": "19",
                    "lat": 46.95868071171386,
                    "lng": 7.440337322595145,
                    "name": "4teamwork.ch",
                    "tipCount": "0",
                    "usersCount": 4
                },
                "4bc019baabf49521f7e6be93": {
                    "category": "Cosmetics Shop",
                    "checkins": "4",
                    "lat": 46.955520922434026,
                    "lng": 7.4396648542202986,
                    "name": "Cosmea Beaute",
                    "tipCount": "0",
                    "usersCount": 3
                },
                "4bc1cc1a4cdfc9b6e80c9521": {
                    "category": "Bar",
                    "checkins": "719",
                    "lat": 46.95623314107053,
                    "lng": 7.437561980296863,
                    "name": "Bierhu\u0308beli",
                    "tipCount": "4",
                    "usersCount": 312
                },
                "4bf971b9b182c9b6c0f0785a": {
                    "category": "Rock Club",
                    "checkins": "163",
                    "lat": 46.95342492988899,
                    "lng": 7.440016584815776,
                    "name": "ISC Club",
                    "tipCount": "7",
                    "usersCount": 81
                },
                "4bff9df1ca1920a17900ed81": {
                    "category": "Italian Restaurant",
                    "checkins": "12",
                    "lat": 46.95704842623155,
                    "lng": 7.437546032885449,
                    "name": "Restaurant la Rotonda",
                    "tipCount": "1",
                    "usersCount": 10
                },
                "4c0a5cfca1b32d7fe32199f0": {
                    "category": "Pool",
                    "checkins": "244",
                    "lat": 46.95809940948529,
                    "lng": 7.4425586889211095,
                    "name": "Lorrainebad",
                    "tipCount": "2",
                    "usersCount": 86
                },
                "4c9a3e4378fc236ab9de3397": {
                    "category": "Bus Station",
                    "checkins": "187",
                    "lat": 46.95381565980806,
                    "lng": 7.439181804656982,
                    "name": "Henkerbru\u0308nnli",
                    "tipCount": "0",
                    "usersCount": 37
                },
                "4c9a420e78fc236ac9003497": {
                    "category": "Bus Station",
                    "checkins": "323",
                    "lat": 46.95849390642623,
                    "lng": 7.436281704867206,
                    "name": "Engeried",
                    "tipCount": "0",
                    "usersCount": 17
                },
                "4c9b0ee3553cef3bb74cd977": {
                    "category": "Bar",
                    "checkins": "61",
                    "lat": 46.95612475922689,
                    "lng": 7.436440935462944,
                    "name": "English Speaking Club of Bern",
                    "tipCount": "2",
                    "usersCount": 10
                },
                "4ca0df780e9bb1f72d27fc5f": {
                    "category": "Building",
                    "checkins": "2",
                    "lat": 46.956226,
                    "lng": 7.436132,
                    "name": "salsaluca.ch @ studio 63",
                    "tipCount": "0",
                    "usersCount": 1
                },
                "4cbd768e0180721ece84a961": {
                    "category": "College Science Building",
                    "checkins": "110",
                    "lat": 46.953502,
                    "lng": 7.440044,
                    "name": "SCG",
                    "tipCount": "0",
                    "usersCount": 13
                },
                "4d23117916cfb60ca6726e61": {
                    "category": "Restaurant",
                    "checkins": "850",
                    "lat": 46.95686973462101,
                    "lng": 7.440114939423094,
                    "name": "Personalrestaurant PostFinance",
                    "tipCount": "0",
                    "usersCount": 27
                },
                "4d2b129f8292236ab3ee30bb": {
                    "category": "Tech Startup",
                    "checkins": "10",
                    "lat": 46.956275720866266,
                    "lng": 7.43630867,
                    "name": "Adfinis",
                    "tipCount": "0",
                    "usersCount": 2
                },
                "4d63609436d72d43d420a92a": {
                    "category": "College Math Building",
                    "checkins": "36",
                    "lat": 46.9549175,
                    "lng": 7.43538045,
                    "name": "Institut fu\u0308r Mathematische Statistik und Versicherungslehre",
                    "tipCount": "0",
                    "usersCount": 8
                },
                "4d7f7adaf635236a8a1e7a16": {
                    "category": "Bakery",
                    "checkins": "146",
                    "lat": 46.95565721676305,
                    "lng": 7.444954703672102,
                    "name": "Lorraine Beck",
                    "tipCount": "1",
                    "usersCount": 22
                },
                "4d9f3383a77d816e21c0fc08": {
                    "category": "Italian Restaurant",
                    "checkins": "7",
                    "lat": 46.957114,
                    "lng": 7.437378,
                    "name": "La Marra GmbH",
                    "tipCount": "1",
                    "usersCount": 6
                },
                "4da3f18b7aee5481cb0cf4fe": {
                    "category": "Newsstand",
                    "checkins": "4",
                    "lat": 46.957119,
                    "lng": 7.437335,
                    "name": "Kiosk",
                    "tipCount": "0",
                    "usersCount": 2
                },
                "4e062eff1f6e21103384fa90": {
                    "category": "BBQ Joint",
                    "checkins": "2",
                    "lat": 46.956661,
                    "lng": 7.443688,
                    "name": "VoLo Party",
                    "tipCount": "0",
                    "usersCount": 2
                },
                "4e06d630d4c03ae0b9c69880": {
                    "category": "Garden",
                    "checkins": "46",
                    "lat": 46.95730938603911,
                    "lng": 7.435478250274826,
                    "name": "Viererfeld Familienga\u0308rten",
                    "tipCount": "0",
                    "usersCount": 4
                },
                "4e2edf7c6284021061ebb5d6": {
                    "category": "Park",
                    "checkins": "411",
                    "lat": 46.95535952469576,
                    "lng": 7.444472502555365,
                    "name": "Lorrainepa\u0308rkli",
                    "tipCount": "0",
                    "usersCount": 42
                },
                "4e45366bfa76eeb2daccf4a5": {
                    "category": "Grocery Store",
                    "checkins": "15",
                    "lat": 46.95666291074459,
                    "lng": 7.444503307342529,
                    "name": "Akkara Asian Supermarket",
                    "tipCount": "1",
                    "usersCount": 8
                },
                "4e70975cd1649bf27019c725": {
                    "category": "Gas Station",
                    "checkins": "4",
                    "lat": 46.958048,
                    "lng": 7.436564,
                    "name": "Avia Neubru\u0308ck",
                    "tipCount": "0",
                    "usersCount": 4
                },
                "4e92eb1155037de99d89904a": {
                    "category": "College & University",
                    "checkins": "88",
                    "lat": 46.95375809398211,
                    "lng": 7.439863714804036,
                    "name": "Uni Engehalde",
                    "tipCount": "0",
                    "usersCount": 26
                },
                "4e9c575cb803b562d70dfbb7": {
                    "category": "Martial Arts Dojo",
                    "checkins": "58",
                    "lat": 46.95798703815973,
                    "lng": 7.4430994502187495,
                    "name": "Kickboxacademy Bern",
                    "tipCount": "0",
                    "usersCount": 8
                },
                "4ee613766da14e7d9b3a344d": {
                    "category": "Office",
                    "checkins": "7",
                    "lat": 46.956335979484315,
                    "lng": 7.440457011015263,
                    "name": "Debitoren Service AG",
                    "tipCount": "0",
                    "usersCount": 3
                },
                "4f8dbe93e4b01d92a7006135": {
                    "category": "Bus Station",
                    "checkins": "60",
                    "lat": 46.96535659527172,
                    "lng": 7.441478976364876,
                    "name": "Aeussere Enge",
                    "tipCount": "0",
                    "usersCount": 9
                },
                "50141f44e4b06b8dcc1f1911": {
                    "category": "River",
                    "checkins": "10",
                    "lat": 46.95652151000736,
                    "lng": 7.44003611059126,
                    "name": "Kanuclub Bern",
                    "tipCount": "0",
                    "usersCount": 6
                },
                "502a4f42e4b0b12f2475057e": {
                    "category": "River",
                    "checkins": "79",
                    "lat": 46.9541300329303,
                    "lng": 7.43586592589056,
                    "name": "River Aare (Aare)",
                    "tipCount": "0",
                    "usersCount": 42
                },
                "503ca7a7e4b09727e26930fd": {
                    "category": "Office",
                    "checkins": "66",
                    "lat": 46.954913669221995,
                    "lng": 7.435735335760939,
                    "name": "Gesamtkirchgemeinde Bern und Umgebung",
                    "tipCount": "0",
                    "usersCount": 3
                },
                "516fc5c0498e30599f0baf72": {
                    "category": "Neighborhood",
                    "checkins": "1040",
                    "lat": 46.95766810943919,
                    "lng": 7.447020061247715,
                    "name": "Lorraine",
                    "tipCount": "0",
                    "usersCount": 109
                },
                "518cbe3e498ea3305b6fbbc2": {
                    "category": "Bike Shop",
                    "checkins": "8",
                    "lat": 46.95737875622927,
                    "lng": 7.437472891410054,
                    "name": "Die Speiche",
                    "tipCount": "0",
                    "usersCount": 3
                },
                "51aaeab4498e407e9556c129": {
                    "category": "Concert Hall",
                    "checkins": "3",
                    "lat": 46.95320048595465,
                    "lng": 7.440764576623619,
                    "name": "Frauenraum",
                    "tipCount": "0",
                    "usersCount": 3
                },
                "5213a08511d2d290f883cc86": {
                    "category": "Automotive Shop",
                    "checkins": "1",
                    "lat": 46.956111907958984,
                    "lng": 7.441774845123291,
                    "name": "CarCenter La\u0308nggasse",
                    "tipCount": "0",
                    "usersCount": 1
                },
                "522578c811d20b9cba100a90": {
                    "category": "Office",
                    "checkins": "14",
                    "lat": 46.9555,
                    "lng": 7.439519,
                    "name": "Domicil Bern",
                    "tipCount": "0",
                    "usersCount": 5
                },
                "530893ba498ea2a396f89de7": {
                    "category": "Convention Center",
                    "checkins": "9",
                    "lat": 46.95524589507122,
                    "lng": 7.439782619476318,
                    "name": "Pfadiheim Schwyzersta\u0308rn",
                    "tipCount": "0",
                    "usersCount": 7
                },
                "5314bd1ce4b0d805d3785490": {
                    "category": "Neighborhood",
                    "checkins": "13",
                    "lat": 46.95735366275281,
                    "lng": 7.443215983699031,
                    "name": "Bern / Engehalde",
                    "tipCount": "0",
                    "usersCount": 7
                },
                "53723cb3498e58c936f139df": {
                    "category": "Convenience Store",
                    "checkins": "15",
                    "lat": 46.958297956913825,
                    "lng": 7.444631368804544,
                    "name": "Kiosk Lorraine",
                    "tipCount": "0",
                    "usersCount": 4
                },
                "5390997f498ea09f06eed8a5": {
                    "category": "Camera Store",
                    "checkins": "8",
                    "lat": 46.95560945366533,
                    "lng": 7.439530093831777,
                    "name": "Profot",
                    "tipCount": "1",
                    "usersCount": 6
                },
                "53ac322d498e80bd1876e3fc": {
                    "category": "Recreation Center",
                    "checkins": "21",
                    "lat": 46.95946944101153,
                    "lng": 7.442360579288955,
                    "name": "Freibad Lorraine",
                    "tipCount": "0",
                    "usersCount": 14
                },
                "5506a88f498e7103744e92ee": {
                    "category": "Athletics & Sports",
                    "checkins": "8",
                    "lat": 46.95430364559192,
                    "lng": 7.442062491473682,
                    "name": "Maru Dojo",
                    "tipCount": "0",
                    "usersCount": 3
                },
                "55bf26cf498e6acadebe66ab": {
                    "category": "Doctor's Office",
                    "checkins": "6",
                    "lat": 46.95814731397523,
                    "lng": 7.440255084629175,
                    "name": "Praxiszentrum am Bahnhof",
                    "tipCount": "0",
                    "usersCount": 3
                },
                "568269a4498e0ac75e07cef9": {
                    "category": "Park",
                    "checkins": "4",
                    "lat": 46.956155,
                    "lng": 7.438629,
                    "name": "Wildpark",
                    "tipCount": "0",
                    "usersCount": 2
                },
                "5683b408498e4eae7e15fe0f": {
                    "category": "Salon / Barbershop",
                    "checkins": "10",
                    "lat": 46.95651938084236,
                    "lng": 7.444897582926663,
                    "name": "S.O.S. Sisters of Scissors",
                    "tipCount": "0",
                    "usersCount": 3
                },
                "57baa929498e684793cc7492": {
                    "category": "Doctor's Office",
                    "checkins": "1",
                    "lat": 46.95824,
                    "lng": 7.43832,
                    "name": "Praxis Dr. Frank Locher",
                    "tipCount": "0",
                    "usersCount": 1
                },
                "5911a427237dee18cb003e61": {
                    "category": "Non-Profit",
                    "checkins": "2",
                    "lat": 46.956231,
                    "lng": 7.440077,
                    "name": "PostFinance InnovationLab",
                    "tipCount": "0",
                    "usersCount": 1
                }
            }
        },
        "11": {
            "city": "BERN\n",
            "code": "Bern Engehalde 37",
            "lat": "46.9576225281",
            "lng": "7.44011688232",
            "venues": {
                "4b66d742f964a520f82c2be3": {
                    "category": "Office",
                    "checkins": "2357",
                    "lat": 46.95813446195016,
                    "lng": 7.4403727700692555,
                    "name": "PostFinance",
                    "tipCount": "1",
                    "usersCount": 95
                },
                "4b78071bf964a520a6b22ee3": {
                    "category": "Hotel Bar",
                    "checkins": "351",
                    "lat": 46.96084622068462,
                    "lng": 7.439284950787066,
                    "name": "Hotel Innere Enge",
                    "tipCount": "4",
                    "usersCount": 151
                },
                "4b7d6e0bf964a520c3bd2fe3": {
                    "category": "Automotive Shop",
                    "checkins": "1",
                    "lat": 46.957159,
                    "lng": 7.437377,
                    "name": "RE 1871, BN-BI, 17.42 ab BN",
                    "tipCount": "0",
                    "usersCount": 1
                },
                "4b994558f964a5201e6f35e3": {
                    "category": "Office",
                    "checkins": "19",
                    "lat": 46.95868071171386,
                    "lng": 7.440337322595145,
                    "name": "4teamwork.ch",
                    "tipCount": "0",
                    "usersCount": 4
                },
                "4bc1cc1a4cdfc9b6e80c9521": {
                    "category": "Bar",
                    "checkins": "719",
                    "lat": 46.95623314107053,
                    "lng": 7.437561980296863,
                    "name": "Bierhu\u0308beli",
                    "tipCount": "4",
                    "usersCount": 312
                },
                "4bff9df1ca1920a17900ed81": {
                    "category": "Italian Restaurant",
                    "checkins": "12",
                    "lat": 46.95704842623155,
                    "lng": 7.437546032885449,
                    "name": "Restaurant la Rotonda",
                    "tipCount": "1",
                    "usersCount": 10
                },
                "4c9b0ee3553cef3bb74cd977": {
                    "category": "Bar",
                    "checkins": "61",
                    "lat": 46.95612475922689,
                    "lng": 7.436440935462944,
                    "name": "English Speaking Club of Bern",
                    "tipCount": "2",
                    "usersCount": 10
                },
                "4c9b371b553cef3b6631da77": {
                    "category": "Jazz Club",
                    "checkins": "57",
                    "lat": 46.96105069071971,
                    "lng": 7.439422787247824,
                    "name": "Marian's Jazz Room",
                    "tipCount": "2",
                    "usersCount": 41
                },
                "4ccc4faa566aa0937baf20fd": {
                    "category": "Swiss Restaurant",
                    "checkins": "4",
                    "lat": 46.957252257138634,
                    "lng": 7.436502185238952,
                    "name": "dieKU\u0308CHE",
                    "tipCount": "0",
                    "usersCount": 2
                },
                "4d23117916cfb60ca6726e61": {
                    "category": "Restaurant",
                    "checkins": "850",
                    "lat": 46.95686973462101,
                    "lng": 7.440114939423094,
                    "name": "Personalrestaurant PostFinance",
                    "tipCount": "0",
                    "usersCount": 27
                },
                "4d2b129f8292236ab3ee30bb": {
                    "category": "Tech Startup",
                    "checkins": "10",
                    "lat": 46.956275720866266,
                    "lng": 7.43630867,
                    "name": "Adfinis",
                    "tipCount": "0",
                    "usersCount": 2
                },
                "4d9f3383a77d816e21c0fc08": {
                    "category": "Italian Restaurant",
                    "checkins": "7",
                    "lat": 46.957114,
                    "lng": 7.437378,
                    "name": "La Marra GmbH",
                    "tipCount": "1",
                    "usersCount": 6
                },
                "4da3f18b7aee5481cb0cf4fe": {
                    "category": "Newsstand",
                    "checkins": "4",
                    "lat": 46.957119,
                    "lng": 7.437335,
                    "name": "Kiosk",
                    "tipCount": "0",
                    "usersCount": 2
                },
                "4dab0b110437dccbd8138c74": {
                    "category": "Radio Station",
                    "checkins": "94",
                    "lat": 46.95799045201495,
                    "lng": 7.4432668622340366,
                    "name": "Radio RaBe",
                    "tipCount": "0",
                    "usersCount": 31
                },
                "4dfcfefb185009bba4deb5c3": {
                    "category": "Gym / Fitness Center",
                    "checkins": "19",
                    "lat": 46.95677641683678,
                    "lng": 7.443205118179321,
                    "name": "Gym Fit Club",
                    "tipCount": "0",
                    "usersCount": 10
                },
                "4e062eff1f6e21103384fa90": {
                    "category": "BBQ Joint",
                    "checkins": "2",
                    "lat": 46.956661,
                    "lng": 7.443688,
                    "name": "VoLo Party",
                    "tipCount": "0",
                    "usersCount": 2
                },
                "4e32cfc9cc3fda036b9b7816": {
                    "category": "Pool",
                    "checkins": "1",
                    "lat": 46.95691189153485,
                    "lng": 7.443280220031738,
                    "name": "City Day SPA",
                    "tipCount": "0",
                    "usersCount": 1
                },
                "4e70975cd1649bf27019c725": {
                    "category": "Gas Station",
                    "checkins": "4",
                    "lat": 46.958048,
                    "lng": 7.436564,
                    "name": "Avia Neubru\u0308ck",
                    "tipCount": "0",
                    "usersCount": 4
                },
                "4e9c575cb803b562d70dfbb7": {
                    "category": "Martial Arts Dojo",
                    "checkins": "58",
                    "lat": 46.95798703815973,
                    "lng": 7.4430994502187495,
                    "name": "Kickboxacademy Bern",
                    "tipCount": "0",
                    "usersCount": 8
                },
                "4ebac90a9911053f4e30bcb0": {
                    "category": "Office",
                    "checkins": "3",
                    "lat": 46.957436,
                    "lng": 7.437493,
                    "name": "nts",
                    "tipCount": "0",
                    "usersCount": 3
                },
                "4ee613766da14e7d9b3a344d": {
                    "category": "Office",
                    "checkins": "7",
                    "lat": 46.956335979484315,
                    "lng": 7.440457011015263,
                    "name": "Debitoren Service AG",
                    "tipCount": "0",
                    "usersCount": 3
                },
                "4f5778c3e4b03aa91dde15b8": {
                    "category": "Museum",
                    "checkins": "21",
                    "lat": 46.957436295603564,
                    "lng": 7.444247233450609,
                    "name": "Kriminalmuseum | Polizeikommando des Kantons Bern",
                    "tipCount": "0",
                    "usersCount": 5
                },
                "4f59e865e4b0b04916ec09b9": {
                    "category": "Swiss Restaurant",
                    "checkins": "1",
                    "lat": 46.960452,
                    "lng": 7.437307,
                    "name": "Cafe\u0301 Sunneschyn",
                    "tipCount": "0",
                    "usersCount": 1
                },
                "4f8dbe93e4b01d92a7006135": {
                    "category": "Student Center",
                    "checkins": "60",
                    "lat": 46.96535659527172,
                    "lng": 7.441478976364876,
                    "name": "Aeussere Enge",
                    "tipCount": "0",
                    "usersCount": 9
                },
                "503cfbd7e4b09e01d331cbc9": {
                    "category": "Mini Golf",
                    "checkins": "12",
                    "lat": 46.96052169799805,
                    "lng": 7.439291000366211,
                    "name": "Minigolf Innere Enge",
                    "tipCount": "0",
                    "usersCount": 12
                },
                "50f7b392e4b010caa08fc679": {
                    "category": "Bike Shop",
                    "checkins": "9",
                    "lat": 46.95784530976936,
                    "lng": 7.436813773353892,
                    "name": "Velostatt",
                    "tipCount": "0",
                    "usersCount": 2
                },
                "5102ceebe4b0e45ff07bee12": {
                    "category": "Office",
                    "checkins": "2",
                    "lat": 46.95625305175781,
                    "lng": 7.435654640197754,
                    "name": "giessform",
                    "tipCount": "0",
                    "usersCount": 1
                },
                "516fc5c0498e30599f0baf72": {
                    "category": "Neighborhood",
                    "checkins": "1040",
                    "lat": 46.95766810943919,
                    "lng": 7.447020061247715,
                    "name": "Lorraine",
                    "tipCount": "0",
                    "usersCount": 109
                },
                "518cbe3e498ea3305b6fbbc2": {
                    "category": "Bike Shop",
                    "checkins": "8",
                    "lat": 46.95737875622927,
                    "lng": 7.437472891410054,
                    "name": "Die Speiche",
                    "tipCount": "0",
                    "usersCount": 3
                },
                "51d5bfc6498efa52e64cb618": {
                    "category": "Italian Restaurant",
                    "checkins": "37",
                    "lat": 46.956932,
                    "lng": 7.437728,
                    "name": "La Vita",
                    "tipCount": "3",
                    "usersCount": 21
                },
                "51e0294a498e7042addd39c9": {
                    "category": "Bus Station",
                    "checkins": "284",
                    "lat": 46.96138087283779,
                    "lng": 7.439334293175034,
                    "name": "Bernmobil Innere Enge",
                    "tipCount": "0",
                    "usersCount": 12
                },
                "51ee771e498e06b466e3e030": {
                    "category": "Medical Center",
                    "checkins": "150",
                    "lat": 46.96109764945383,
                    "lng": 7.438248609821337,
                    "name": "Der Burgerspittel",
                    "tipCount": "0",
                    "usersCount": 9
                },
                "5213a08511d2d290f883cc86": {
                    "category": "Automotive Shop",
                    "checkins": "1",
                    "lat": 46.956111907958984,
                    "lng": 7.441774845123291,
                    "name": "CarCenter La\u0308nggasse",
                    "tipCount": "0",
                    "usersCount": 1
                },
                "522578c811d20b9cba100a90": {
                    "category": "Office",
                    "checkins": "14",
                    "lat": 46.9555,
                    "lng": 7.439519,
                    "name": "Domicil Bern",
                    "tipCount": "0",
                    "usersCount": 5
                },
                "524d4a1611d22e6cb5280361": {
                    "category": "Event Space",
                    "checkins": "1",
                    "lat": 46.960911,
                    "lng": 7.439323,
                    "name": "Carrier's Lunch Bern",
                    "tipCount": "0",
                    "usersCount": 1
                },
                "5260fbff11d21bb2bea7a5a2": {
                    "category": "Medical Center",
                    "checkins": "1",
                    "lat": 46.95600165769286,
                    "lng": 7.436232354912496,
                    "name": "Physiotherapie La\u0308nggasse",
                    "tipCount": "0",
                    "usersCount": 1
                },
                "52f0f7f511d25e220d808a2c": {
                    "category": "Pet Service",
                    "checkins": "12",
                    "lat": 46.956399282762774,
                    "lng": 7.436596155166626,
                    "name": "Kleintierpraxis 54",
                    "tipCount": "0",
                    "usersCount": 3
                },
                "5300ef5f498ea021e68a7fd5": {
                    "category": "Food & Drink Shop",
                    "checkins": "1",
                    "lat": 46.956767,
                    "lng": 7.444853,
                    "name": "indian food",
                    "tipCount": "0",
                    "usersCount": 1
                },
                "530e2375498e730e69609f89": {
                    "category": "Bike Shop",
                    "checkins": "1",
                    "lat": 46.957445,
                    "lng": 7.442231,
                    "name": "fixieshop",
                    "tipCount": "0",
                    "usersCount": 1
                },
                "5390997f498ea09f06eed8a5": {
                    "category": "Camera Store",
                    "checkins": "8",
                    "lat": 46.95560945366533,
                    "lng": 7.439530093831777,
                    "name": "Profot",
                    "tipCount": "1",
                    "usersCount": 6
                },
                "55a3d7e7498e55581b037e03": {
                    "category": "Discount Store",
                    "checkins": "1",
                    "lat": 46.95800018310547,
                    "lng": 7.444544315338135,
                    "name": "Denner",
                    "tipCount": "0",
                    "usersCount": 1
                },
                "55bf26cf498e6acadebe66ab": {
                    "category": "Doctor's Office",
                    "checkins": "6",
                    "lat": 46.95814731397523,
                    "lng": 7.440255084629175,
                    "name": "Praxiszentrum am Bahnhof",
                    "tipCount": "0",
                    "usersCount": 3
                },
                "55e460ba498e894f451f4e9c": {
                    "category": "Bakery",
                    "checkins": "65",
                    "lat": 46.95734786987305,
                    "lng": 7.437004089355469,
                    "name": "Ba\u0308ckerei Sterchi",
                    "tipCount": "0",
                    "usersCount": 3
                },
                "568269a4498e0ac75e07cef9": {
                    "category": "Park",
                    "checkins": "4",
                    "lat": 46.956155,
                    "lng": 7.438629,
                    "name": "Wildpark",
                    "tipCount": "0",
                    "usersCount": 2
                },
                "5683b408498e4eae7e15fe0f": {
                    "category": "Salon / Barbershop",
                    "checkins": "10",
                    "lat": 46.95651938084236,
                    "lng": 7.444897582926663,
                    "name": "S.O.S. Sisters of Scissors",
                    "tipCount": "0",
                    "usersCount": 3
                },
                "57b2b48b498e119d1be0ad4f": {
                    "category": "Nursery School",
                    "checkins": "113",
                    "lat": 46.95731635625559,
                    "lng": 7.443588967643347,
                    "name": "Provisorium Kindergarten Lorraine",
                    "tipCount": "0",
                    "usersCount": 8
                },
                "57baa929498e684793cc7492": {
                    "category": "Doctor's Office",
                    "checkins": "1",
                    "lat": 46.95824,
                    "lng": 7.43832,
                    "name": "Praxis Dr. Frank Locher",
                    "tipCount": "0",
                    "usersCount": 1
                },
                "5911a427237dee18cb003e61": {
                    "category": "Non-Profit",
                    "checkins": "2",
                    "lat": 46.956231,
                    "lng": 7.440077,
                    "name": "PostFinance InnovationLab",
                    "tipCount": "0",
                    "usersCount": 1
                },
                "5957c371772fbc4ee08604cd": {
                    "category": "Music Venue",
                    "checkins": "1",
                    "lat": 46.955444,
                    "lng": 7.438299,
                    "name": "FRISCHE FISCHE - Rooftop Day Bern",
                    "tipCount": "0",
                    "usersCount": 1
                },
                "59ee2fc72632ec468f9f0b1e": {
                    "category": "Student Center",
                    "checkins": "1",
                    "lat": 46.956586,
                    "lng": 7.445195,
                    "name": "Schprachkurse",
                    "tipCount": "0",
                    "usersCount": 1
                }
            }
        },
        "12": {
            "city": "BERN\n",
            "code": "Bern Engehalde 39",
            "lat": "46.9582252502",
            "lng": "7.44045782089",
            "venues": {
                "4b5db0a7f964a520fc6629e3": {
                    "category": "Office",
                    "checkins": "119",
                    "lat": 46.956008123841976,
                    "lng": 7.436384093669384,
                    "name": "SBB Infrastruktur",
                    "tipCount": "1",
                    "usersCount": 40
                },
                "4b66d742f964a520f82c2be3": {
                    "category": "Office",
                    "checkins": "2357",
                    "lat": 46.95813446195016,
                    "lng": 7.4403727700692555,
                    "name": "PostFinance",
                    "tipCount": "1",
                    "usersCount": 95
                },
                "4b78071bf964a520a6b22ee3": {
                    "category": "Hotel Bar",
                    "checkins": "351",
                    "lat": 46.96084622068462,
                    "lng": 7.439284950787066,
                    "name": "Hotel Innere Enge",
                    "tipCount": "4",
                    "usersCount": 151
                },
                "4b994558f964a5201e6f35e3": {
                    "category": "Office",
                    "checkins": "19",
                    "lat": 46.95868071171386,
                    "lng": 7.440337322595145,
                    "name": "4teamwork.ch",
                    "tipCount": "0",
                    "usersCount": 4
                },
                "4bc019baabf49521f7e6be93": {
                    "category": "Cosmetics Shop",
                    "checkins": "4",
                    "lat": 46.955520922434026,
                    "lng": 7.4396648542202986,
                    "name": "Cosmea Beaute",
                    "tipCount": "0",
                    "usersCount": 3
                },
                "4bc1cc1a4cdfc9b6e80c9521": {
                    "category": "Bar",
                    "checkins": "719",
                    "lat": 46.95623314107053,
                    "lng": 7.437561980296863,
                    "name": "Bierhu\u0308beli",
                    "tipCount": "4",
                    "usersCount": 312
                },
                "4c9a3e4378fc236ab9de3397": {
                    "category": "Bus Station",
                    "checkins": "187",
                    "lat": 46.95381565980806,
                    "lng": 7.439181804656982,
                    "name": "Henkerbru\u0308nnli",
                    "tipCount": "0",
                    "usersCount": 37
                },
                "4c9a4358eaa5a143b1c9cae4": {
                    "category": "Bus Station",
                    "checkins": "737",
                    "lat": 46.95725861427126,
                    "lng": 7.435558898322333,
                    "name": "Bernmobil Bierhu\u0308beli",
                    "tipCount": "0",
                    "usersCount": 62
                },
                "4c9b0ee3553cef3bb74cd977": {
                    "category": "Bar",
                    "checkins": "61",
                    "lat": 46.95612475922689,
                    "lng": 7.436440935462944,
                    "name": "English Speaking Club of Bern",
                    "tipCount": "2",
                    "usersCount": 10
                },
                "4c9b371b553cef3b6631da77": {
                    "category": "Jazz Club",
                    "checkins": "57",
                    "lat": 46.96105069071971,
                    "lng": 7.439422787247824,
                    "name": "Marian's Jazz Room",
                    "tipCount": "2",
                    "usersCount": 41
                },
                "4d23117916cfb60ca6726e61": {
                    "category": "Restaurant",
                    "checkins": "850",
                    "lat": 46.95686973462101,
                    "lng": 7.440114939423094,
                    "name": "Personalrestaurant PostFinance",
                    "tipCount": "0",
                    "usersCount": 27
                },
                "4d2b129f8292236ab3ee30bb": {
                    "category": "Tech Startup",
                    "checkins": "10",
                    "lat": 46.956275720866266,
                    "lng": 7.43630867,
                    "name": "Adfinis",
                    "tipCount": "0",
                    "usersCount": 2
                },
                "4d7f7adaf635236a8a1e7a16": {
                    "category": "Bakery",
                    "checkins": "146",
                    "lat": 46.95565721676305,
                    "lng": 7.444954703672102,
                    "name": "Lorraine Beck",
                    "tipCount": "1",
                    "usersCount": 22
                },
                "4da3f18b7aee5481cb0cf4fe": {
                    "category": "Newsstand",
                    "checkins": "4",
                    "lat": 46.957119,
                    "lng": 7.437335,
                    "name": "Kiosk",
                    "tipCount": "0",
                    "usersCount": 2
                },
                "4dab0b110437dccbd8138c74": {
                    "category": "Radio Station",
                    "checkins": "94",
                    "lat": 46.95799045201495,
                    "lng": 7.4432668622340366,
                    "name": "Radio RaBe",
                    "tipCount": "0",
                    "usersCount": 31
                },
                "4dfcfefb185009bba4deb5c3": {
                    "category": "Gym / Fitness Center",
                    "checkins": "19",
                    "lat": 46.95677641683678,
                    "lng": 7.443205118179321,
                    "name": "Gym Fit Club",
                    "tipCount": "0",
                    "usersCount": 10
                },
                "4e062eff1f6e21103384fa90": {
                    "category": "BBQ Joint",
                    "checkins": "2",
                    "lat": 46.956661,
                    "lng": 7.443688,
                    "name": "VoLo Party",
                    "tipCount": "0",
                    "usersCount": 2
                },
                "4e39249eb61c438b54834d5c": {
                    "category": "Grocery Store",
                    "checkins": "23",
                    "lat": 46.958853,
                    "lng": 7.446295,
                    "name": "Die Q",
                    "tipCount": "0",
                    "usersCount": 3
                },
                "4e55183b52b14687067b9348": {
                    "category": "Building",
                    "checkins": "4",
                    "lat": 46.958417,
                    "lng": 7.437916,
                    "name": "b16",
                    "tipCount": "0",
                    "usersCount": 1
                },
                "4e70975cd1649bf27019c725": {
                    "category": "Gas Station",
                    "checkins": "4",
                    "lat": 46.958048,
                    "lng": 7.436564,
                    "name": "Avia Neubru\u0308ck",
                    "tipCount": "0",
                    "usersCount": 4
                },
                "4e863b239adff0e73d6e13b3": {
                    "category": "Other Nightlife",
                    "checkins": "3",
                    "lat": 46.95630176719745,
                    "lng": 7.436528982450044,
                    "name": "RedBull THRE3STYLE",
                    "tipCount": "0",
                    "usersCount": 3
                },
                "4e9c575cb803b562d70dfbb7": {
                    "category": "Martial Arts Dojo",
                    "checkins": "58",
                    "lat": 46.95798703815973,
                    "lng": 7.4430994502187495,
                    "name": "Kickboxacademy Bern",
                    "tipCount": "0",
                    "usersCount": 8
                },
                "4ebac90a9911053f4e30bcb0": {
                    "category": "Office",
                    "checkins": "3",
                    "lat": 46.957436,
                    "lng": 7.437493,
                    "name": "nts",
                    "tipCount": "0",
                    "usersCount": 3
                },
                "4ee613766da14e7d9b3a344d": {
                    "category": "Office",
                    "checkins": "7",
                    "lat": 46.956335979484315,
                    "lng": 7.440457011015263,
                    "name": "Debitoren Service AG",
                    "tipCount": "0",
                    "usersCount": 3
                },
                "4f59e865e4b0b04916ec09b9": {
                    "category": "Swiss Restaurant",
                    "checkins": "1",
                    "lat": 46.960452,
                    "lng": 7.437307,
                    "name": "Cafe\u0301 Sunneschyn",
                    "tipCount": "0",
                    "usersCount": 1
                },
                "4f8dbe93e4b01d92a7006135": {
                    "category": "Bar",
                    "checkins": "60",
                    "lat": 46.96535659527172,
                    "lng": 7.441478976364876,
                    "name": "Aeussere Enge",
                    "tipCount": "0",
                    "usersCount": 9
                },
                "50141f44e4b06b8dcc1f1911": {
                    "category": "River",
                    "checkins": "10",
                    "lat": 46.95652151000736,
                    "lng": 7.44003611059126,
                    "name": "Kanuclub Bern",
                    "tipCount": "0",
                    "usersCount": 6
                },
                "5024332be4b01c38f88db62e": {
                    "category": "Bus Station",
                    "checkins": "5",
                    "lat": 46.95887268093713,
                    "lng": 7.445439445305199,
                    "name": "Bern Birkenweg",
                    "tipCount": "0",
                    "usersCount": 5
                },
                "50f7b392e4b010caa08fc679": {
                    "category": "Bike Shop",
                    "checkins": "9",
                    "lat": 46.95784530976936,
                    "lng": 7.436813773353892,
                    "name": "Velostatt",
                    "tipCount": "0",
                    "usersCount": 2
                },
                "516684b38aca45e735cbf0c6": {
                    "category": "Factory",
                    "checkins": "20",
                    "lat": 46.95836181547217,
                    "lng": 7.443258762359618,
                    "name": "A2THINGS",
                    "tipCount": "1",
                    "usersCount": 1
                },
                "518cbe3e498ea3305b6fbbc2": {
                    "category": "Bike Shop",
                    "checkins": "8",
                    "lat": 46.95737875622927,
                    "lng": 7.437472891410054,
                    "name": "Die Speiche",
                    "tipCount": "0",
                    "usersCount": 3
                },
                "51d5bfc6498efa52e64cb618": {
                    "category": "Italian Restaurant",
                    "checkins": "37",
                    "lat": 46.956932,
                    "lng": 7.437728,
                    "name": "La Vita",
                    "tipCount": "3",
                    "usersCount": 21
                },
                "51e0294a498e7042addd39c9": {
                    "category": "Bus Station",
                    "checkins": "284",
                    "lat": 46.96138087283779,
                    "lng": 7.439334293175034,
                    "name": "Bernmobil Innere Enge",
                    "tipCount": "0",
                    "usersCount": 12
                },
                "51ee771e498e06b466e3e030": {
                    "category": "Medical Center",
                    "checkins": "150",
                    "lat": 46.96109764945383,
                    "lng": 7.438248609821337,
                    "name": "Der Burgerspittel",
                    "tipCount": "0",
                    "usersCount": 9
                },
                "5213a08511d2d290f883cc86": {
                    "category": "Automotive Shop",
                    "checkins": "1",
                    "lat": 46.956111907958984,
                    "lng": 7.441774845123291,
                    "name": "CarCenter La\u0308nggasse",
                    "tipCount": "0",
                    "usersCount": 1
                },
                "522578c811d20b9cba100a90": {
                    "category": "Office",
                    "checkins": "14",
                    "lat": 46.9555,
                    "lng": 7.439519,
                    "name": "Domicil Bern",
                    "tipCount": "0",
                    "usersCount": 5
                },
                "524d4a1611d22e6cb5280361": {
                    "category": "Event Space",
                    "checkins": "1",
                    "lat": 46.960911,
                    "lng": 7.439323,
                    "name": "Carrier's Lunch Bern",
                    "tipCount": "0",
                    "usersCount": 1
                },
                "530e2375498e730e69609f89": {
                    "category": "Bike Shop",
                    "checkins": "1",
                    "lat": 46.957445,
                    "lng": 7.442231,
                    "name": "fixieshop",
                    "tipCount": "0",
                    "usersCount": 1
                },
                "5314bd1ce4b0d805d3785490": {
                    "category": "Neighborhood",
                    "checkins": "13",
                    "lat": 46.95735366275281,
                    "lng": 7.443215983699031,
                    "name": "Bern / Engehalde",
                    "tipCount": "0",
                    "usersCount": 7
                },
                "5390997f498ea09f06eed8a5": {
                    "category": "Camera Store",
                    "checkins": "8",
                    "lat": 46.95560945366533,
                    "lng": 7.439530093831777,
                    "name": "Profot",
                    "tipCount": "1",
                    "usersCount": 6
                },
                "53ac322d498e80bd1876e3fc": {
                    "category": "Recreation Center",
                    "checkins": "21",
                    "lat": 46.95946944101153,
                    "lng": 7.442360579288955,
                    "name": "Freibad Lorraine",
                    "tipCount": "0",
                    "usersCount": 14
                },
                "55a3d7e7498e55581b037e03": {
                    "category": "Discount Store",
                    "checkins": "1",
                    "lat": 46.95800018310547,
                    "lng": 7.444544315338135,
                    "name": "Denner",
                    "tipCount": "0",
                    "usersCount": 1
                },
                "55bf26cf498e6acadebe66ab": {
                    "category": "Doctor's Office",
                    "checkins": "6",
                    "lat": 46.95814731397523,
                    "lng": 7.440255084629175,
                    "name": "Praxiszentrum am Bahnhof",
                    "tipCount": "0",
                    "usersCount": 3
                },
                "5683b408498e4eae7e15fe0f": {
                    "category": "Salon / Barbershop",
                    "checkins": "10",
                    "lat": 46.95651938084236,
                    "lng": 7.444897582926663,
                    "name": "S.O.S. Sisters of Scissors",
                    "tipCount": "0",
                    "usersCount": 3
                },
                "57baa5d1498efd637a4c003a": {
                    "category": "Doctor's Office",
                    "checkins": "7",
                    "lat": 46.958203,
                    "lng": 7.438294,
                    "name": "Praxis Dr. Frank Locher",
                    "tipCount": "0",
                    "usersCount": 1
                },
                "57baa929498e684793cc7492": {
                    "category": "Doctor's Office",
                    "checkins": "1",
                    "lat": 46.95824,
                    "lng": 7.43832,
                    "name": "Praxis Dr. Frank Locher",
                    "tipCount": "0",
                    "usersCount": 1
                },
                "57c7e40e498e61091c8c27ad": {
                    "category": "Advertising Agency",
                    "checkins": "72",
                    "lat": 46.96158,
                    "lng": 7.44186,
                    "name": "ads&figures AG",
                    "tipCount": "0",
                    "usersCount": 5
                },
                "5911a427237dee18cb003e61": {
                    "category": "Non-Profit",
                    "checkins": "2",
                    "lat": 46.956231,
                    "lng": 7.440077,
                    "name": "PostFinance InnovationLab",
                    "tipCount": "0",
                    "usersCount": 1
                },
                "5957c371772fbc4ee08604cd": {
                    "category": "Music Venue",
                    "checkins": "1",
                    "lat": 46.955444,
                    "lng": 7.438299,
                    "name": "FRISCHE FISCHE - Rooftop Day Bern",
                    "tipCount": "0",
                    "usersCount": 1
                },
                "59ee2fc72632ec468f9f0b1e": {
                    "category": "Student Center",
                    "checkins": "1",
                    "lat": 46.956586,
                    "lng": 7.445195,
                    "name": "Schprachkurse",
                    "tipCount": "0",
                    "usersCount": 1
                }
            }
        },
        "13": {
            "city": "ZOLLIKOFEN\n",
            "code": "Zollikofen 12A",
            "lat": "47.0024147034",
            "lng": "7.44059896469",
            "venues": {
                "4b5d53f8f964a520ff5929e3": {
                    "category": "Soccer Field",
                    "checkins": "10",
                    "lat": 46.990498476849176,
                    "lng": 7.450324985039906,
                    "name": "@zenderma\u0308tteli restaurant",
                    "tipCount": "0",
                    "usersCount": 8
                },
                "4b6877c6f964a520747a2be3": {
                    "category": "High School",
                    "checkins": "2",
                    "lat": 47.02029105889224,
                    "lng": 7.437813066220613,
                    "name": "Red Rock",
                    "tipCount": "0",
                    "usersCount": 2
                },
                "4b6dc364f964a520848d2ce3": {
                    "category": "Shopping Mall",
                    "checkins": "4",
                    "lat": 46.997014,
                    "lng": 7.459108,
                    "name": "Bier Ko\u0308nig",
                    "tipCount": "0",
                    "usersCount": 4
                },
                "4bea3826b3352d7f9aff54d2": {
                    "category": "Office",
                    "checkins": "1090",
                    "lat": 47.00205198335186,
                    "lng": 7.441503273131075,
                    "name": "Post Informationstechnologie",
                    "tipCount": "0",
                    "usersCount": 59
                },
                "4ce816878ef78cfa08f6979b": {
                    "category": "Hockey Arena",
                    "checkins": "70",
                    "lat": 47.00985487785054,
                    "lng": 7.445512850412466,
                    "name": "Hirzenfeld",
                    "tipCount": "0",
                    "usersCount": 32
                },
                "4d30b4425f806dcb8c451cac": {
                    "category": "Rock Club",
                    "checkins": "4",
                    "lat": 46.99868559837341,
                    "lng": 7.460939884185791,
                    "name": "QNS Garage",
                    "tipCount": "1",
                    "usersCount": 2
                },
                "4d432760f2a6a093bd30de68": {
                    "category": "Other Great Outdoors",
                    "checkins": "1",
                    "lat": 47.002687,
                    "lng": 7.461773,
                    "name": "Poker Hole Romano",
                    "tipCount": "0",
                    "usersCount": 1
                },
                "4d9431d458caa143063ba525": {
                    "category": "High School",
                    "checkins": "22",
                    "lat": 46.99947854430269,
                    "lng": 7.442520031921565,
                    "name": "Schule Geisshubel Zollikofen",
                    "tipCount": "0",
                    "usersCount": 6
                },
                "4da8248c6a2364c7a34ccfb6": {
                    "category": "Swiss Restaurant",
                    "checkins": "4",
                    "lat": 46.99955,
                    "lng": 7.438208,
                    "name": "Restaurant zur frohen Aussicht",
                    "tipCount": "0",
                    "usersCount": 3
                },
                "4e06293618a8382643abe081": {
                    "category": "Movie Theater",
                    "checkins": "1",
                    "lat": 46.996818,
                    "lng": 7.460203,
                    "name": "Homecinema \"Toxic\"",
                    "tipCount": "0",
                    "usersCount": 1
                },
                "4e201f8bae6015b212979e9a": {
                    "category": "Office",
                    "checkins": "5",
                    "lat": 46.993211,
                    "lng": 7.45729,
                    "name": "Private Spitex Zollikofen",
                    "tipCount": "0",
                    "usersCount": 2
                },
                "4e33df251495fa2def57df4f": {
                    "category": "Temple",
                    "checkins": "31",
                    "lat": 47.002005040583896,
                    "lng": 7.458645515531886,
                    "name": "Tempel Kirche Jesu Christi der Heiligen der Letzten Tage",
                    "tipCount": "0",
                    "usersCount": 20
                },
                "4e51f6bf18a8af30fda7c86c": {
                    "category": "Bus Line",
                    "checkins": "7",
                    "lat": 46.99806020021724,
                    "lng": 7.436446863107187,
                    "name": "Postauto 106 Bern <-> Zollikofen",
                    "tipCount": "0",
                    "usersCount": 5
                },
                "4e7c566fd22d023f5430c27a": {
                    "category": "Basketball Court",
                    "checkins": "5",
                    "lat": 46.9888444328823,
                    "lng": 7.450531600048848,
                    "name": "Turnhalle Aarestrasse",
                    "tipCount": "0",
                    "usersCount": 2
                },
                "4e8a9789b63423c020d1a64e": {
                    "category": "Dentist's Office",
                    "checkins": "22",
                    "lat": 46.99504352867268,
                    "lng": 7.455092668533325,
                    "name": "Dr. med. dent. B. Mu\u0308nger",
                    "tipCount": "0",
                    "usersCount": 2
                },
                "4eae3a26dab4a75e0a6bf63f": {
                    "category": "Post Office",
                    "checkins": "30",
                    "lat": 46.997801018145246,
                    "lng": 7.45630460004231,
                    "name": "Poststelle Zollikofen",
                    "tipCount": "0",
                    "usersCount": 17
                },
                "4eb41edc6da1df9ff9e79d29": {
                    "category": "Shopping Mall",
                    "checkins": "28",
                    "lat": 46.99341013540805,
                    "lng": 7.457250701013856,
                    "name": "Migros Zollikofen",
                    "tipCount": "0",
                    "usersCount": 12
                },
                "4f05bcb86c2509578717e23e": {
                    "category": "Electronics Store",
                    "checkins": "25",
                    "lat": 47.00386622626964,
                    "lng": 7.4440115844305925,
                    "name": "Steg Electronics AG",
                    "tipCount": "0",
                    "usersCount": 14
                },
                "4f361c4be4b0aa62a0c1e977": {
                    "category": "Bus Station",
                    "checkins": "75",
                    "lat": 46.99713619958378,
                    "lng": 7.4595598190649,
                    "name": "RBS Kreuz",
                    "tipCount": "0",
                    "usersCount": 5
                },
                "4f994821e4b06ffc46805c04": {
                    "category": "Coworking Space",
                    "checkins": "4",
                    "lat": 47.001894546778566,
                    "lng": 7.441737683500043,
                    "name": "GEWA",
                    "tipCount": "0",
                    "usersCount": 2
                },
                "5016ee5600caab47e9ac8f87": {
                    "category": "Grocery Store",
                    "checkins": "9",
                    "lat": 47.01962516649518,
                    "lng": 7.4470094072055995,
                    "name": "Coop",
                    "tipCount": "0",
                    "usersCount": 8
                },
                "5028f6dbe4b031f7a3055684": {
                    "category": "College Administrative Building",
                    "checkins": "45",
                    "lat": 47.00070221126353,
                    "lng": 7.455211589052844,
                    "name": "Blindenschule Zollikofen",
                    "tipCount": "0",
                    "usersCount": 9
                },
                "5034ee86e4b0c985f4718bba": {
                    "category": "Athletics & Sports",
                    "checkins": "1",
                    "lat": 46.9989,
                    "lng": 7.456,
                    "name": "Vita Parcour Zollikofen",
                    "tipCount": "0",
                    "usersCount": 1
                },
                "50470e9be4b0a2da20df7cfe": {
                    "category": "Doctor's Office",
                    "checkins": "7",
                    "lat": 47.00040411740727,
                    "lng": 7.4604116225096995,
                    "name": "salutomed",
                    "tipCount": "0",
                    "usersCount": 2
                },
                "506f0d68e4b03206db212799": {
                    "category": "Asian Restaurant",
                    "checkins": "31",
                    "lat": 46.99752645410505,
                    "lng": 7.45842202956722,
                    "name": "Red House",
                    "tipCount": "1",
                    "usersCount": 11
                },
                "50a10aa4e4b0cfcd3b8b1f5f": {
                    "category": "Veterinarian",
                    "checkins": "6",
                    "lat": 47.019917,
                    "lng": 7.440169,
                    "name": "Kleintierpraxis Dr. Witschi",
                    "tipCount": "0",
                    "usersCount": 4
                },
                "50abcc89e4b0799987583316": {
                    "category": "Pool Hall",
                    "checkins": "1",
                    "lat": 46.99748992919922,
                    "lng": 7.459014892578125,
                    "name": "Dartclub Black Vipers",
                    "tipCount": "0",
                    "usersCount": 1
                },
                "51383e5be4b077bc6198628e": {
                    "category": "Factory",
                    "checkins": "5",
                    "lat": 47.01018205183046,
                    "lng": 7.460432050751118,
                    "name": "Flachglas Mu\u0308nchenbuchsee AG",
                    "tipCount": "0",
                    "usersCount": 1
                },
                "516ba7d9e4b0a7336bf57e23": {
                    "category": "City",
                    "checkins": "112",
                    "lat": 46.992970337786495,
                    "lng": 7.454960396099426,
                    "name": "Unterzollikofen",
                    "tipCount": "0",
                    "usersCount": 26
                },
                "516eeb37e4b0d30c32ef76cb": {
                    "category": "Park",
                    "checkins": "5",
                    "lat": 47.00157165527344,
                    "lng": 7.445167064666748,
                    "name": "Neudo\u0308rflplatz Zollikofen",
                    "tipCount": "0",
                    "usersCount": 5
                },
                "5176d62ae4b0414d9aada792": {
                    "category": "Swiss Restaurant",
                    "checkins": "11",
                    "lat": 46.99813408945319,
                    "lng": 7.440025147504428,
                    "name": "Restaurant Zur Frohen Aussicht",
                    "tipCount": "0",
                    "usersCount": 7
                },
                "518f59d8498ea6bd728a491d": {
                    "category": "Bus Stop",
                    "checkins": "10",
                    "lat": 47.01515966007375,
                    "lng": 7.456953346174689,
                    "name": "Haltestelle Mu\u0308nchenbuchsee, Hofwilstrasse",
                    "tipCount": "0",
                    "usersCount": 4
                },
                "519c5885498efbf01f9d031b": {
                    "category": "Office",
                    "checkins": "159",
                    "lat": 47.00248146597149,
                    "lng": 7.440865874045827,
                    "name": "Die Schweizerische Post",
                    "tipCount": "0",
                    "usersCount": 20
                },
                "51c327fc498e5c61990b01f1": {
                    "category": "Bus Station",
                    "checkins": "26",
                    "lat": 46.999646,
                    "lng": 7.442533,
                    "name": "Geisshubel",
                    "tipCount": "0",
                    "usersCount": 3
                },
                "51c57950498ec4d1f9d94fed": {
                    "category": "Tennis Court",
                    "checkins": "1",
                    "lat": 46.99748992919922,
                    "lng": 7.434028148651123,
                    "name": "Tennisclub Zollikofen",
                    "tipCount": "0",
                    "usersCount": 1
                },
                "51ceceef498e0f41edf60a1f": {
                    "category": "Factory",
                    "checkins": "1",
                    "lat": 46.996254,
                    "lng": 7.453159,
                    "name": "kitebag barn",
                    "tipCount": "1",
                    "usersCount": 1
                },
                "521e175211d25b47775a99b9": {
                    "category": "Cheese Shop",
                    "checkins": "3",
                    "lat": 46.999172,
                    "lng": 7.450975,
                    "name": "Pfister's Molki",
                    "tipCount": "0",
                    "usersCount": 2
                },
                "5226185011d24fd427fd41b3": {
                    "category": "General College & University",
                    "checkins": "1",
                    "lat": 47.0107752275332,
                    "lng": 7.457186784012304,
                    "name": "Schulhaus Waldegg",
                    "tipCount": "0",
                    "usersCount": 1
                },
                "5244750c11d2d53c6ef49ece": {
                    "category": "Soccer Field",
                    "checkins": "6",
                    "lat": 47.011049,
                    "lng": 7.446064,
                    "name": "SCM",
                    "tipCount": "0",
                    "usersCount": 2
                },
                "52624a2d498eab6385e664e3": {
                    "category": "Bus Station",
                    "checkins": "4",
                    "lat": 46.99846081309283,
                    "lng": 7.448278394112188,
                    "name": "Erlachplatz",
                    "tipCount": "0",
                    "usersCount": 2
                },
                "528ce373498ecf3a7748aebe": {
                    "category": "Neighborhood",
                    "checkins": "4",
                    "lat": 47.00334921322794,
                    "lng": 7.427232462410926,
                    "name": "Oberlindach",
                    "tipCount": "0",
                    "usersCount": 3
                },
                "52b1a853498ec6a94a8b8269": {
                    "category": "Video Store",
                    "checkins": "3",
                    "lat": 46.992811,
                    "lng": 7.457219,
                    "name": "Weinhaus Zollikofen",
                    "tipCount": "0",
                    "usersCount": 3
                },
                "5314f8d8e4b0e72a36e2a8a8": {
                    "category": "Neighborhood",
                    "checkins": "3",
                    "lat": 46.98950393031585,
                    "lng": 7.443343158105322,
                    "name": "Rossfeld",
                    "tipCount": "0",
                    "usersCount": 2
                },
                "538b71e8498e6050303cd88a": {
                    "category": "German Restaurant",
                    "checkins": "1",
                    "lat": 46.990534,
                    "lng": 7.450798,
                    "name": "restaurant rugen bra\u0308u",
                    "tipCount": "0",
                    "usersCount": 1
                },
                "53a2c251498e9733bb036fab": {
                    "category": "Tree",
                    "checkins": "1",
                    "lat": 47.008652,
                    "lng": 7.443407,
                    "name": "Hug-A-Tree",
                    "tipCount": "0",
                    "usersCount": 1
                },
                "55a0d5c9498eadf4a2d6cd32": {
                    "category": "Pool",
                    "checkins": "8",
                    "lat": 47.010261,
                    "lng": 7.445473,
                    "name": "Badi Hirzi",
                    "tipCount": "0",
                    "usersCount": 5
                },
                "55c7a723498e61d04d475946": {
                    "category": "Community College",
                    "checkins": "1",
                    "lat": 46.998878479003906,
                    "lng": 7.452548027038574,
                    "name": "Sekundarschule Zollikofen",
                    "tipCount": "0",
                    "usersCount": 1
                },
                "55ce2f94498e6d8be8be2907": {
                    "category": "Other Great Outdoors",
                    "checkins": "1",
                    "lat": 46.998147,
                    "lng": 7.451323,
                    "name": "Landgarben (586m)",
                    "tipCount": "0",
                    "usersCount": 1
                },
                "55cf9238498e99e0aee0ef64": {
                    "category": "Trail",
                    "checkins": "1",
                    "lat": 46.992442,
                    "lng": 7.456817,
                    "name": "Unterzollikofen (545m)",
                    "tipCount": "0",
                    "usersCount": 1
                },
                "55cfa725498e6d87c43cce0f": {
                    "category": "Trail",
                    "checkins": "1",
                    "lat": 46.99964696692197,
                    "lng": 7.449644884119651,
                    "name": "Worblaufen Station (520m)",
                    "tipCount": "0",
                    "usersCount": 1
                }
            }
        },
        "14": {
            "city": "ZOLLIKOFEN\n",
            "code": "Zollikofen 12B",
            "lat": "47.0021400452",
            "lng": "7.44130706787",
            "venues": {
                "4b5d53f8f964a520ff5929e3": {
                    "category": "Building",
                    "checkins": "10",
                    "lat": 46.990498476849176,
                    "lng": 7.450324985039906,
                    "name": "@zenderma\u0308tteli restaurant",
                    "tipCount": "0",
                    "usersCount": 8
                },
                "4bea3826b3352d7f9aff54d2": {
                    "category": "Office",
                    "checkins": "1090",
                    "lat": 47.00205198335186,
                    "lng": 7.441503273131075,
                    "name": "Post Informationstechnologie",
                    "tipCount": "0",
                    "usersCount": 59
                },
                "4c535c0da724e21e20ea9af4": {
                    "category": "Building",
                    "checkins": "44",
                    "lat": 46.99779281605153,
                    "lng": 7.4634620422731,
                    "name": "Valora",
                    "tipCount": "0",
                    "usersCount": 4
                },
                "4ce816878ef78cfa08f6979b": {
                    "category": "Hockey Arena",
                    "checkins": "70",
                    "lat": 47.00985487785054,
                    "lng": 7.445512850412466,
                    "name": "Hirzenfeld",
                    "tipCount": "0",
                    "usersCount": 32
                },
                "4d30b4425f806dcb8c451cac": {
                    "category": "Rock Club",
                    "checkins": "4",
                    "lat": 46.99868559837341,
                    "lng": 7.460939884185791,
                    "name": "QNS Garage",
                    "tipCount": "1",
                    "usersCount": 2
                },
                "4d432760f2a6a093bd30de68": {
                    "category": "Rock Club",
                    "checkins": "1",
                    "lat": 47.002687,
                    "lng": 7.461773,
                    "name": "Poker Hole Romano",
                    "tipCount": "0",
                    "usersCount": 1
                },
                "4d9431d458caa143063ba525": {
                    "category": "High School",
                    "checkins": "22",
                    "lat": 46.99947854430269,
                    "lng": 7.442520031921565,
                    "name": "Schule Geisshubel Zollikofen",
                    "tipCount": "0",
                    "usersCount": 6
                },
                "4da8248c6a2364c7a34ccfb6": {
                    "category": "Swiss Restaurant",
                    "checkins": "4",
                    "lat": 46.99955,
                    "lng": 7.438208,
                    "name": "Restaurant zur frohen Aussicht",
                    "tipCount": "0",
                    "usersCount": 3
                },
                "4dd77698ae60680f150794d0": {
                    "category": "General Entertainment",
                    "checkins": "10",
                    "lat": 47.00029883785004,
                    "lng": 7.4407845331036135,
                    "name": "Internationales Jugendtorballturnier Zollikofen",
                    "tipCount": "0",
                    "usersCount": 3
                },
                "4e06293618a8382643abe081": {
                    "category": "Movie Theater",
                    "checkins": "1",
                    "lat": 46.996818,
                    "lng": 7.460203,
                    "name": "Homecinema \"Toxic\"",
                    "tipCount": "0",
                    "usersCount": 1
                },
                "4e201f8bae6015b212979e9a": {
                    "category": "Office",
                    "checkins": "5",
                    "lat": 46.993211,
                    "lng": 7.45729,
                    "name": "Private Spitex Zollikofen",
                    "tipCount": "0",
                    "usersCount": 2
                },
                "4e33df251495fa2def57df4f": {
                    "category": "Temple",
                    "checkins": "31",
                    "lat": 47.002005040583896,
                    "lng": 7.458645515531886,
                    "name": "Tempel Kirche Jesu Christi der Heiligen der Letzten Tage",
                    "tipCount": "0",
                    "usersCount": 20
                },
                "4eae3a26dab4a75e0a6bf63f": {
                    "category": "Post Office",
                    "checkins": "30",
                    "lat": 46.997801018145246,
                    "lng": 7.45630460004231,
                    "name": "Poststelle Zollikofen",
                    "tipCount": "0",
                    "usersCount": 17
                },
                "4eb41edc6da1df9ff9e79d29": {
                    "category": "Shopping Mall",
                    "checkins": "28",
                    "lat": 46.99341013540805,
                    "lng": 7.457250701013856,
                    "name": "Migros Zollikofen",
                    "tipCount": "0",
                    "usersCount": 12
                },
                "4f029ade02d580f8f26c0b56": {
                    "category": "Bus Stop",
                    "checkins": "1",
                    "lat": 47.00308420168311,
                    "lng": 7.443106941493536,
                    "name": "Securitas",
                    "tipCount": "0",
                    "usersCount": 1
                },
                "4f05bcb86c2509578717e23e": {
                    "category": "Electronics Store",
                    "checkins": "25",
                    "lat": 47.00386622626964,
                    "lng": 7.4440115844305925,
                    "name": "Steg Electronics AG",
                    "tipCount": "0",
                    "usersCount": 14
                },
                "4f994821e4b06ffc46805c04": {
                    "category": "Coworking Space",
                    "checkins": "4",
                    "lat": 47.001894546778566,
                    "lng": 7.441737683500043,
                    "name": "GEWA",
                    "tipCount": "0",
                    "usersCount": 2
                },
                "5028f6dbe4b031f7a3055684": {
                    "category": "College Administrative Building",
                    "checkins": "45",
                    "lat": 47.00070221126353,
                    "lng": 7.455211589052844,
                    "name": "Blindenschule Zollikofen",
                    "tipCount": "0",
                    "usersCount": 9
                },
                "5034ee86e4b0c985f4718bba": {
                    "category": "Athletics & Sports",
                    "checkins": "1",
                    "lat": 46.9989,
                    "lng": 7.456,
                    "name": "Vita Parcour Zollikofen",
                    "tipCount": "0",
                    "usersCount": 1
                },
                "503ce9a4e4b09a8f96512757": {
                    "category": "Office",
                    "checkins": "3",
                    "lat": 47.001163,
                    "lng": 7.442462,
                    "name": "Poly-Projekt GmbH",
                    "tipCount": "0",
                    "usersCount": 2
                },
                "50470e9be4b0a2da20df7cfe": {
                    "category": "Doctor's Office",
                    "checkins": "7",
                    "lat": 47.00040411740727,
                    "lng": 7.4604116225096995,
                    "name": "salutomed",
                    "tipCount": "0",
                    "usersCount": 2
                },
                "50615631e4b022844b103551": {
                    "category": "Office",
                    "checkins": "69",
                    "lat": 46.996790171404506,
                    "lng": 7.461612312457016,
                    "name": "railtour",
                    "tipCount": "0",
                    "usersCount": 8
                },
                "50830c9be4b0b8e84462d979": {
                    "category": "Caf\u00e9",
                    "checkins": "4",
                    "lat": 47.001932639020325,
                    "lng": 7.4415924597918135,
                    "name": "Restaurant Esperanza",
                    "tipCount": "0",
                    "usersCount": 3
                },
                "50abcc89e4b0799987583316": {
                    "category": "Pool Hall",
                    "checkins": "1",
                    "lat": 46.99748992919922,
                    "lng": 7.459014892578125,
                    "name": "Dartclub Black Vipers",
                    "tipCount": "0",
                    "usersCount": 1
                },
                "50c4c029e4b0d0a366ae8881": {
                    "category": "Bowling Alley",
                    "checkins": "7",
                    "lat": 47.00078021182683,
                    "lng": 7.462711918389791,
                    "name": "Kegelbahn",
                    "tipCount": "0",
                    "usersCount": 5
                },
                "51383e5be4b077bc6198628e": {
                    "category": "Factory",
                    "checkins": "5",
                    "lat": 47.01018205183046,
                    "lng": 7.460432050751118,
                    "name": "Flachglas Mu\u0308nchenbuchsee AG",
                    "tipCount": "0",
                    "usersCount": 1
                },
                "5159a1d1e4b07154670b3858": {
                    "category": "Field",
                    "checkins": "30",
                    "lat": 47.005631,
                    "lng": 7.434904,
                    "name": "The Bench",
                    "tipCount": "0",
                    "usersCount": 3
                },
                "516ba7d9e4b0a7336bf57e23": {
                    "category": "City",
                    "checkins": "112",
                    "lat": 46.992970337786495,
                    "lng": 7.454960396099426,
                    "name": "Unterzollikofen",
                    "tipCount": "0",
                    "usersCount": 26
                },
                "516eeb37e4b0d30c32ef76cb": {
                    "category": "Park",
                    "checkins": "5",
                    "lat": 47.00157165527344,
                    "lng": 7.445167064666748,
                    "name": "Neudo\u0308rflplatz Zollikofen",
                    "tipCount": "0",
                    "usersCount": 5
                },
                "5173de40e4b0f1593c20c88f": {
                    "category": "Driving School",
                    "checkins": "3",
                    "lat": 46.996317,
                    "lng": 7.461593,
                    "name": "Fahrschule Berndrive",
                    "tipCount": "0",
                    "usersCount": 2
                },
                "517beaf7e4b08822e14fb9a8": {
                    "category": "Soccer Field",
                    "checkins": "5",
                    "lat": 46.99919690887644,
                    "lng": 7.440975718819994,
                    "name": "Clubhaus FC Zollikofen",
                    "tipCount": "0",
                    "usersCount": 4
                },
                "518f59d8498ea6bd728a491d": {
                    "category": "Bus Stop",
                    "checkins": "10",
                    "lat": 47.01515966007375,
                    "lng": 7.456953346174689,
                    "name": "Haltestelle Mu\u0308nchenbuchsee, Hofwilstrasse",
                    "tipCount": "0",
                    "usersCount": 4
                },
                "519c5885498efbf01f9d031b": {
                    "category": "Office",
                    "checkins": "159",
                    "lat": 47.00248146597149,
                    "lng": 7.440865874045827,
                    "name": "Die Schweizerische Post",
                    "tipCount": "0",
                    "usersCount": 20
                },
                "51b55d64498e0d22af88c249": {
                    "category": "Office",
                    "checkins": "55",
                    "lat": 46.99667208865628,
                    "lng": 7.461904564130288,
                    "name": "Informatik-hilfe.net",
                    "tipCount": "0",
                    "usersCount": 6
                },
                "51c327fc498e5c61990b01f1": {
                    "category": "Bus Station",
                    "checkins": "26",
                    "lat": 46.999646,
                    "lng": 7.442533,
                    "name": "Geisshubel",
                    "tipCount": "0",
                    "usersCount": 3
                },
                "51c57950498ec4d1f9d94fed": {
                    "category": "Tennis Court",
                    "checkins": "1",
                    "lat": 46.99748992919922,
                    "lng": 7.434028148651123,
                    "name": "Tennisclub Zollikofen",
                    "tipCount": "0",
                    "usersCount": 1
                },
                "51fed33d498ec6f5fdb706f0": {
                    "category": "General Travel",
                    "checkins": "131",
                    "lat": 47.00122634130097,
                    "lng": 7.459993815374449,
                    "name": "3052 Zollikofen",
                    "tipCount": "0",
                    "usersCount": 39
                },
                "521e175211d25b47775a99b9": {
                    "category": "Cheese Shop",
                    "checkins": "3",
                    "lat": 46.999172,
                    "lng": 7.450975,
                    "name": "Pfister's Molki",
                    "tipCount": "0",
                    "usersCount": 2
                },
                "5244750c11d2d53c6ef49ece": {
                    "category": "Soccer Field",
                    "checkins": "6",
                    "lat": 47.011049,
                    "lng": 7.446064,
                    "name": "SCM",
                    "tipCount": "0",
                    "usersCount": 2
                },
                "52624a2d498eab6385e664e3": {
                    "category": "Bus Station",
                    "checkins": "4",
                    "lat": 46.99846081309283,
                    "lng": 7.448278394112188,
                    "name": "Erlachplatz",
                    "tipCount": "0",
                    "usersCount": 2
                },
                "527768e311d2b7e9baee2805": {
                    "category": "Department Store",
                    "checkins": "4",
                    "lat": 46.997685993525515,
                    "lng": 7.464298740178917,
                    "name": "Landi",
                    "tipCount": "0",
                    "usersCount": 4
                },
                "528ce373498ecf3a7748aebe": {
                    "category": "Neighborhood",
                    "checkins": "4",
                    "lat": 47.00334921322794,
                    "lng": 7.427232462410926,
                    "name": "Oberlindach",
                    "tipCount": "0",
                    "usersCount": 3
                },
                "52dd757b498eabb1661ae2cd": {
                    "category": "Gym",
                    "checkins": "308",
                    "lat": 47.00252729271394,
                    "lng": 7.440672967454361,
                    "name": "Swiss Post IT Gym",
                    "tipCount": "0",
                    "usersCount": 5
                },
                "538b71e8498e6050303cd88a": {
                    "category": "German Restaurant",
                    "checkins": "1",
                    "lat": 46.990534,
                    "lng": 7.450798,
                    "name": "restaurant rugen bra\u0308u",
                    "tipCount": "0",
                    "usersCount": 1
                },
                "53a2c251498e9733bb036fab": {
                    "category": "Tree",
                    "checkins": "1",
                    "lat": 47.008652,
                    "lng": 7.443407,
                    "name": "Hug-A-Tree",
                    "tipCount": "0",
                    "usersCount": 1
                },
                "55ce2f94498e6d8be8be2907": {
                    "category": "Other Great Outdoors",
                    "checkins": "1",
                    "lat": 46.998147,
                    "lng": 7.451323,
                    "name": "Landgarben (586m)",
                    "tipCount": "0",
                    "usersCount": 1
                },
                "55cf9238498e99e0aee0ef64": {
                    "category": "Trail",
                    "checkins": "1",
                    "lat": 46.992442,
                    "lng": 7.456817,
                    "name": "Unterzollikofen (545m)",
                    "tipCount": "0",
                    "usersCount": 1
                },
                "55cfa725498e6d87c43cce0f": {
                    "category": "Trail",
                    "checkins": "1",
                    "lat": 46.99964696692197,
                    "lng": 7.449644884119651,
                    "name": "Worblaufen Station (520m)",
                    "tipCount": "0",
                    "usersCount": 1
                },
                "591ad96831ac6c1dd7352acc": {
                    "category": "Burger Joint",
                    "checkins": "3",
                    "lat": 46.995572,
                    "lng": 7.46318,
                    "name": "Grill... and more",
                    "tipCount": "0",
                    "usersCount": 1
                },
                "59ba9f1b234724041c0b4a26": {
                    "category": "Bus Stop",
                    "checkins": "1",
                    "lat": 47.002841,
                    "lng": 7.444253,
                    "name": "Zollikofen, Hirzenfeld",
                    "tipCount": "0",
                    "usersCount": 1
                }
            }
        },
        "15": {
            "city": "ZOLLIKOFEN\n",
            "code": "Zollikofen 12C",
            "lat": "47.0027542114",
            "lng": "7.44085693359",
            "venues": {
                "4b5d53f8f964a520ff5929e3": {
                    "category": "College Administrative Building",
                    "checkins": "10",
                    "lat": 46.990498476849176,
                    "lng": 7.450324985039906,
                    "name": "@zenderma\u0308tteli restaurant",
                    "tipCount": "0",
                    "usersCount": 8
                },
                "4b6877c6f964a520747a2be3": {
                    "category": "High School",
                    "checkins": "2",
                    "lat": 47.02029105889224,
                    "lng": 7.437813066220613,
                    "name": "Red Rock",
                    "tipCount": "0",
                    "usersCount": 2
                },
                "4bea3826b3352d7f9aff54d2": {
                    "category": "Office",
                    "checkins": "1090",
                    "lat": 47.00205198335186,
                    "lng": 7.441503273131075,
                    "name": "Post Informationstechnologie",
                    "tipCount": "0",
                    "usersCount": 59
                },
                "4ce816878ef78cfa08f6979b": {
                    "category": "Hockey Arena",
                    "checkins": "70",
                    "lat": 47.00985487785054,
                    "lng": 7.445512850412466,
                    "name": "Hirzenfeld",
                    "tipCount": "0",
                    "usersCount": 32
                },
                "4d30b4425f806dcb8c451cac": {
                    "category": "Rock Club",
                    "checkins": "4",
                    "lat": 46.99868559837341,
                    "lng": 7.460939884185791,
                    "name": "QNS Garage",
                    "tipCount": "1",
                    "usersCount": 2
                },
                "4d432760f2a6a093bd30de68": {
                    "category": "Community College",
                    "checkins": "1",
                    "lat": 47.002687,
                    "lng": 7.461773,
                    "name": "Poker Hole Romano",
                    "tipCount": "0",
                    "usersCount": 1
                },
                "4d9431d458caa143063ba525": {
                    "category": "High School",
                    "checkins": "22",
                    "lat": 46.99947854430269,
                    "lng": 7.442520031921565,
                    "name": "Schule Geisshubel Zollikofen",
                    "tipCount": "0",
                    "usersCount": 6
                },
                "4da8248c6a2364c7a34ccfb6": {
                    "category": "Swiss Restaurant",
                    "checkins": "4",
                    "lat": 46.99955,
                    "lng": 7.438208,
                    "name": "Restaurant zur frohen Aussicht",
                    "tipCount": "0",
                    "usersCount": 3
                },
                "4dc7c0e052b1e8f9f80a6263": {
                    "category": "Diner",
                    "checkins": "51",
                    "lat": 47.00172431536319,
                    "lng": 7.4508382940525015,
                    "name": "Scolarest Restaurant EHB",
                    "tipCount": "0",
                    "usersCount": 2
                },
                "4df8593be4cd21297019de55": {
                    "category": "Building",
                    "checkins": "34",
                    "lat": 47.00171339332956,
                    "lng": 7.450797637526848,
                    "name": "IFFP-EHB Zollikofen",
                    "tipCount": "0",
                    "usersCount": 12
                },
                "4e06293618a8382643abe081": {
                    "category": "Movie Theater",
                    "checkins": "1",
                    "lat": 46.996818,
                    "lng": 7.460203,
                    "name": "Homecinema \"Toxic\"",
                    "tipCount": "0",
                    "usersCount": 1
                },
                "4e201f8bae6015b212979e9a": {
                    "category": "Office",
                    "checkins": "5",
                    "lat": 46.993211,
                    "lng": 7.45729,
                    "name": "Private Spitex Zollikofen",
                    "tipCount": "0",
                    "usersCount": 2
                },
                "4e33df251495fa2def57df4f": {
                    "category": "Temple",
                    "checkins": "31",
                    "lat": 47.002005040583896,
                    "lng": 7.458645515531886,
                    "name": "Tempel Kirche Jesu Christi der Heiligen der Letzten Tage",
                    "tipCount": "0",
                    "usersCount": 20
                },
                "4e51f6bf18a8af30fda7c86c": {
                    "category": "Bus Line",
                    "checkins": "7",
                    "lat": 46.99806020021724,
                    "lng": 7.436446863107187,
                    "name": "Postauto 106 Bern <-> Zollikofen",
                    "tipCount": "0",
                    "usersCount": 5
                },
                "4e7c566fd22d023f5430c27a": {
                    "category": "Basketball Court",
                    "checkins": "5",
                    "lat": 46.9888444328823,
                    "lng": 7.450531600048848,
                    "name": "Turnhalle Aarestrasse",
                    "tipCount": "0",
                    "usersCount": 2
                },
                "4eae3a26dab4a75e0a6bf63f": {
                    "category": "Post Office",
                    "checkins": "30",
                    "lat": 46.997801018145246,
                    "lng": 7.45630460004231,
                    "name": "Poststelle Zollikofen",
                    "tipCount": "0",
                    "usersCount": 17
                },
                "4eb41edc6da1df9ff9e79d29": {
                    "category": "Shopping Mall",
                    "checkins": "28",
                    "lat": 46.99341013540805,
                    "lng": 7.457250701013856,
                    "name": "Migros Zollikofen",
                    "tipCount": "0",
                    "usersCount": 12
                },
                "4f994821e4b06ffc46805c04": {
                    "category": "Coworking Space",
                    "checkins": "4",
                    "lat": 47.001894546778566,
                    "lng": 7.441737683500043,
                    "name": "GEWA",
                    "tipCount": "0",
                    "usersCount": 2
                },
                "5016ee5600caab47e9ac8f87": {
                    "category": "Grocery Store",
                    "checkins": "9",
                    "lat": 47.01962516649518,
                    "lng": 7.4470094072055995,
                    "name": "Coop",
                    "tipCount": "0",
                    "usersCount": 8
                },
                "5028f6dbe4b031f7a3055684": {
                    "category": "College Administrative Building",
                    "checkins": "45",
                    "lat": 47.00070221126353,
                    "lng": 7.455211589052844,
                    "name": "Blindenschule Zollikofen",
                    "tipCount": "0",
                    "usersCount": 9
                },
                "5034ee86e4b0c985f4718bba": {
                    "category": "Athletics & Sports",
                    "checkins": "1",
                    "lat": 46.9989,
                    "lng": 7.456,
                    "name": "Vita Parcour Zollikofen",
                    "tipCount": "0",
                    "usersCount": 1
                },
                "50470e9be4b0a2da20df7cfe": {
                    "category": "Doctor's Office",
                    "checkins": "7",
                    "lat": 47.00040411740727,
                    "lng": 7.4604116225096995,
                    "name": "salutomed",
                    "tipCount": "0",
                    "usersCount": 2
                },
                "50a10aa4e4b0cfcd3b8b1f5f": {
                    "category": "Veterinarian",
                    "checkins": "6",
                    "lat": 47.019917,
                    "lng": 7.440169,
                    "name": "Kleintierpraxis Dr. Witschi",
                    "tipCount": "0",
                    "usersCount": 4
                },
                "50abcc89e4b0799987583316": {
                    "category": "Pool Hall",
                    "checkins": "1",
                    "lat": 46.99748992919922,
                    "lng": 7.459014892578125,
                    "name": "Dartclub Black Vipers",
                    "tipCount": "0",
                    "usersCount": 1
                },